{
  "updated": 1713296737241,
  "places": [
    {
      "name": "Bolesławów",
      "description": "",
      "latitude": 0.0,
      "longitude": 0.0
    },
    {
      "name": "Brzyszów, Olsztyńska",
      "description": "",
      "latitude": 0.0,
      "longitude": 0.0
    },
    {
      "name": "Brzyszów, Szkoła",
      "description": "",
      "latitude": 50.79712,
      "longitude": 19.27994
    },
    {
      "name": "Bystrzanowice",
      "description": "",
      "latitude": 0.0,
      "longitude": 0.0
    },
    {
      "name": "Celiny",
      "description": "",
      "latitude": 0.0,
      "longitude": 0.0
    },
    {
      "name": "Czepurka",
      "description": "",
      "latitude": 50.74956,
      "longitude": 19.38943
    },
    {
      "name": "Czepurka, I",
      "description": "",
      "latitude": 50.75303,
      "longitude": 19.38987
    },
    {
      "name": "Częstochowa, Berger",
      "description": "",
      "latitude": 0.0,
      "longitude": 0.0
    },
    {
      "name": "Częstochowa, Bugajska",
      "description": "",
      "latitude": 0.0,
      "longitude": 0.0
    },
    {
      "name": "Częstochowa, C.H. Jagielończycy",
      "description": "",
      "latitude": 50.78325,
      "longitude": 19.14341
    },
    {
      "name": "Częstochowa, Dworzec Autobusowy",
      "description": "",
      "latitude": 50.80573,
      "longitude": 19.11836
    },
    {
      "name": "Częstochowa, Estakada",
      "description": "",
      "latitude": 0.0,
      "longitude": 0.0
    },
    {
      "name": "Częstochowa, Galeria Jurajska",
      "description": "",
      "latitude": 0.0,
      "longitude": 0.0
    },
    {
      "name": "Częstochowa, Hallera",
      "description": "",
      "latitude": 0.0,
      "longitude": 0.0
    },
    {
      "name": "Częstochowa, I Aleja Najświętszej Maryi Panny",
      "description": "",
      "latitude": 0.0,
      "longitude": 0.0
    },
    {
      "name": "Częstochowa, Koksownia",
      "description": "",
      "latitude": 0.0,
      "longitude": 0.0
    },
    {
      "name": "Częstochowa, Krakowska",
      "description": "",
      "latitude": 0.0,
      "longitude": 0.0
    },
    {
      "name": "Częstochowa, Kręciwilk",
      "description": "",
      "latitude": 0.0,
      "longitude": 0.0
    },
    {
      "name": "Częstochowa, Mała",
      "description": "",
      "latitude": 0.0,
      "longitude": 0.0
    },
    {
      "name": "Częstochowa, Okrzei",
      "description": "",
      "latitude": 0.0,
      "longitude": 0.0
    },
    {
      "name": "Częstochowa, Plac Daszyńskiego",
      "description": "",
      "latitude": 50.81205,
      "longitude": 19.1272
    },
    {
      "name": "Częstochowa, Rakowska",
      "description": "",
      "latitude": 0.0,
      "longitude": 0.0
    },
    {
      "name": "Częstochowa, Rondo Mickiewicza",
      "description": "",
      "latitude": 50.8019,
      "longitude": 19.11772
    },
    {
      "name": "Częstochowa, Rynek Narutowicza",
      "description": "",
      "latitude": 50.81226,
      "longitude": 19.13895
    },
    {
      "name": "Częstochowa, Stary Rynek",
      "description": "",
      "latitude": 50.8119,
      "longitude": 19.12826
    },
    {
      "name": "Częstochowa, Stroma",
      "description": "",
      "latitude": 0.0,
      "longitude": 0.0
    },
    {
      "name": "Częstochowa, Wspólna",
      "description": "",
      "latitude": 0.0,
      "longitude": 0.0
    },
    {
      "name": "Częstochowa, Zawodzie - Szpital",
      "description": "",
      "latitude": 50.81188,
      "longitude": 19.13465
    },
    {
      "name": "Drochlin, Wieś",
      "description": "",
      "latitude": 0.0,
      "longitude": 0.0
    },
    {
      "name": "Janów",
      "description": "",
      "latitude": 50.72192,
      "longitude": 19.436
    },
    {
      "name": "Janów, I",
      "description": "",
      "latitude": 50.7239,
      "longitude": 19.42494
    },
    {
      "name": "Julianka",
      "description": "",
      "latitude": 0.0,
      "longitude": 0.0
    },
    {
      "name": "Kobyłczyce, Krzyżówki",
      "description": "",
      "latitude": 0.0,
      "longitude": 0.0
    },
    {
      "name": "Kobyłczyce, Okupniki",
      "description": "",
      "latitude": 0.0,
      "longitude": 0.0
    },
    {
      "name": "Kobyłczyce, Remiza",
      "description": "",
      "latitude": 0.0,
      "longitude": 0.0
    },
    {
      "name": "Krasawa",
      "description": "",
      "latitude": 0.0,
      "longitude": 0.0
    },
    {
      "name": "Krasawa, Zapasieka",
      "description": "",
      "latitude": 0.0,
      "longitude": 0.0
    },
    {
      "name": "Lelów, Rynek",
      "description": "",
      "latitude": 0.0,
      "longitude": 0.0
    },
    {
      "name": "Lgoczanka, I",
      "description": "",
      "latitude": 0.0,
      "longitude": 0.0
    },
    {
      "name": "Lgota Błotna, Pod Ślęzanami",
      "description": "",
      "latitude": 0.0,
      "longitude": 0.0
    },
    {
      "name": "Lgota Błotna, Skrzyżowanie",
      "description": "",
      "latitude": 0.0,
      "longitude": 0.0
    },
    {
      "name": "Lipnik",
      "description": "",
      "latitude": 0.0,
      "longitude": 0.0
    },
    {
      "name": "Lusławice, I Kolonia",
      "description": "",
      "latitude": 0.0,
      "longitude": 0.0
    },
    {
      "name": "Lusławice, II Szkoła",
      "description": "",
      "latitude": 0.0,
      "longitude": 0.0
    },
    {
      "name": "Lusławice, III Centrum",
      "description": "",
      "latitude": 50.76809,
      "longitude": 19.39647
    },
    {
      "name": "Lusławice, IV Przejazd",
      "description": "",
      "latitude": 50.76133,
      "longitude": 19.39513
    },
    {
      "name": "Małusy Małe, Dworek",
      "description": "",
      "latitude": 50.79749,
      "longitude": 19.30644
    },
    {
      "name": "Małusy Małe, Remiza",
      "description": "",
      "latitude": 50.79695,
      "longitude": 19.29523
    },
    {
      "name": "Małusy Wielkie",
      "description": "",
      "latitude": 0.0,
      "longitude": 0.0
    },
    {
      "name": "Małusy Wielkie, Kościół",
      "description": "",
      "latitude": 50.79704,
      "longitude": 19.32079
    },
    {
      "name": "Małusy Wielkie, Szkoła",
      "description": "",
      "latitude": 50.79465,
      "longitude": 19.32858
    },
    {
      "name": "Olsztyn, Odrzykoń",
      "description": "",
      "latitude": 50.76006,
      "longitude": 19.22475
    },
    {
      "name": "Olsztyn, Rynek",
      "description": "",
      "latitude": 50.75021,
      "longitude": 19.26852
    },
    {
      "name": "Olsztyn, Żwirki i Wigury",
      "description": "",
      "latitude": 50.75298,
      "longitude": 19.26006
    },
    {
      "name": "Pabianice, Brus",
      "description": "",
      "latitude": 0.0,
      "longitude": 0.0
    },
    {
      "name": "Pabianice, Centrum",
      "description": "",
      "latitude": 0.0,
      "longitude": 0.0
    },
    {
      "name": "Pabianice, Górka",
      "description": "",
      "latitude": 0.0,
      "longitude": 0.0
    },
    {
      "name": "Piasek",
      "description": "",
      "latitude": 50.73369,
      "longitude": 19.39715
    },
    {
      "name": "Podlesie",
      "description": "",
      "latitude": 0.0,
      "longitude": 0.0
    },
    {
      "name": "Podlesie, Pustkowie",
      "description": "",
      "latitude": 0.0,
      "longitude": 0.0
    },
    {
      "name": "Przymiłowice, Kasztanowa",
      "description": "",
      "latitude": 50.74728,
      "longitude": 19.31771
    },
    {
      "name": "Przymiłowice, Kielnicka",
      "description": "",
      "latitude": 50.75296,
      "longitude": 19.29469
    },
    {
      "name": "Przymiłowice, Remiza",
      "description": "",
      "latitude": 50.75248,
      "longitude": 19.30833
    },
    {
      "name": "Przyrów, Bloki",
      "description": "",
      "latitude": 0.0,
      "longitude": 0.0
    },
    {
      "name": "Przyrów, Ośrodek Zdrowia",
      "description": "",
      "latitude": 0.0,
      "longitude": 0.0
    },
    {
      "name": "Przyrów, Rynek",
      "description": "",
      "latitude": 0.0,
      "longitude": 0.0
    },
    {
      "name": "Siedlec, Krzyże",
      "description": "",
      "latitude": 0.0,
      "longitude": 0.0
    },
    {
      "name": "Siedlec, Piekło",
      "description": "",
      "latitude": 0.0,
      "longitude": 0.0
    },
    {
      "name": "Siedlec, Polna",
      "description": "",
      "latitude": 0.0,
      "longitude": 0.0
    },
    {
      "name": "Siedlec, k/Janowa",
      "description": "",
      "latitude": 0.0,
      "longitude": 0.0
    },
    {
      "name": "Siedlec, skrz. k/Janowa",
      "description": "",
      "latitude": 0.0,
      "longitude": 0.0
    },
    {
      "name": "Sieraków, I",
      "description": "",
      "latitude": 0.0,
      "longitude": 0.0
    },
    {
      "name": "Sieraków, II",
      "description": "",
      "latitude": 0.0,
      "longitude": 0.0
    },
    {
      "name": "Skowronów",
      "description": "",
      "latitude": 0.0,
      "longitude": 0.0
    },
    {
      "name": "Skowronów, I",
      "description": "",
      "latitude": 0.0,
      "longitude": 0.0
    },
    {
      "name": "Srocko",
      "description": "",
      "latitude": 0.0,
      "longitude": 0.0
    },
    {
      "name": "Srocko, Sklep",
      "description": "",
      "latitude": 0.0,
      "longitude": 0.0
    },
    {
      "name": "Stanisławów",
      "description": "",
      "latitude": 0.0,
      "longitude": 0.0
    },
    {
      "name": "Staromieście",
      "description": "",
      "latitude": 0.0,
      "longitude": 0.0
    },
    {
      "name": "Staromieście, Borowiec I",
      "description": "",
      "latitude": 0.0,
      "longitude": 0.0
    },
    {
      "name": "Staropole, OSP",
      "description": "",
      "latitude": 0.0,
      "longitude": 0.0
    },
    {
      "name": "Wiercica, I",
      "description": "",
      "latitude": 0.0,
      "longitude": 0.0
    },
    {
      "name": "Wiercica, IV",
      "description": "",
      "latitude": 0.0,
      "longitude": 0.0
    },
    {
      "name": "Wiercica, OSP",
      "description": "",
      "latitude": 0.0,
      "longitude": 0.0
    },
    {
      "name": "Zagórze",
      "description": "",
      "latitude": 50.77528,
      "longitude": 19.37418
    },
    {
      "name": "Zagórze, I",
      "description": "",
      "latitude": 0.0,
      "longitude": 0.0
    },
    {
      "name": "Zalesice, Koszary",
      "description": "",
      "latitude": 0.0,
      "longitude": 0.0
    },
    {
      "name": "Zalesice, Wieś",
      "description": "",
      "latitude": 0.0,
      "longitude": 0.0
    },
    {
      "name": "Zarębice, OSP",
      "description": "",
      "latitude": 0.0,
      "longitude": 0.0
    },
    {
      "name": "Zarębice, PGR (górka)",
      "description": "",
      "latitude": 0.0,
      "longitude": 0.0
    },
    {
      "name": "Zarębice, OSP",
      "description": "",
      "latitude": 0.0,
      "longitude": 0.0
    },
    {
      "name": "Zrębice, Ciecierzyn",
      "description": "",
      "latitude": 0.0,
      "longitude": 0.0
    },
    {
      "name": "Zrębice, Główna",
      "description": "",
      "latitude": 0.0,
      "longitude": 0.0
    },
    {
      "name": "Zrębice, Leśniczówka",
      "description": "",
      "latitude": 0.0,
      "longitude": 0.0
    },
    {
      "name": "Zrębice, Rędziny",
      "description": "",
      "latitude": 50.73181,
      "longitude": 19.3318
    },
    {
      "name": "Zrębice, kościół",
      "description": "",
      "latitude": 50.72142,
      "longitude": 19.32934
    },
    {
      "name": "Zrębice, szkoła",
      "description": "",
      "latitude": 50.72465,
      "longitude": 19.32947
    },
    {
      "name": "Złoty Potok",
      "description": "",
      "latitude": 50.70914,
      "longitude": 19.43295
    },
    {
      "name": "Złoty Potok, os. Parkowe",
      "description": "",
      "latitude": 50.71461,
      "longitude": 19.43578
    },
    {
      "name": "Ślęzany, Bysów",
      "description": "",
      "latitude": 0.0,
      "longitude": 0.0
    },
    {
      "name": "Śmiertny Dąb",
      "description": "",
      "latitude": 0.0,
      "longitude": 0.0
    },
    {
      "name": "Żuraw, Centrum",
      "description": "",
      "latitude": 0.0,
      "longitude": 0.0
    },
    {
      "name": "Żuraw, I",
      "description": "",
      "latitude": 0.0,
      "longitude": 0.0
    },
    {
      "name": "Żuraw, II",
      "description": "",
      "latitude": 0.0,
      "longitude": 0.0
    },
    {
      "name": "Żuraw, Kolonia Żurawska",
      "description": "",
      "latitude": 0.0,
      "longitude": 0.0
    },
    {
      "name": "Żuraw, Kościół",
      "description": "",
      "latitude": 0.0,
      "longitude": 0.0
    },
  ]
}
